{'confirm':{"features": [{"geometry": {"coordinates": [117.2264, 31.8257], "type": "Point"}, "properties": {"city": "Anhui", "country": "Mainland China", "value": "989"}, "type": "Feature"}, {"geometry": {"coordinates": [116.4142, 40.1824], "type": "Point"}, "properties": {"city": "Beijing", "country": "Mainland China", "value": "399"}, "type": "Feature"}, {"geometry": {"coordinates": [107.874, 30.0572], "type": "Point"}, "properties": {"city": "Chongqing", "country": "Mainland China", "value": "576"}, "type": "Feature"}, {"geometry": {"coordinates": [117.9874, 26.0789], "type": "Point"}, "properties": {"city": "Fujian", "country": "Mainland China", "value": "293"}, "type": "Feature"}, {"geometry": {"coordinates": [103.8343, 36.0611], "type": "Point"}, "properties": {"city": "Gansu", "country": "Mainland China", "value": "91"}, "type": "Feature"}, {"geometry": {"coordinates": [113.4244, 23.3417], "type": "Point"}, "properties": {"city": "Guangdong", "country": "Mainland China", "value": "1345"}, "type": "Feature"}, {"geometry": {"coordinates": [108.7881, 23.8298], "type": "Point"}, "properties": {"city": "Guangxi", "country": "Mainland China", "value": "251"}, "type": "Feature"}, {"geometry": {"coordinates": [106.8748, 26.8154], "type": "Point"}, "properties": {"city": "Guizhou", "country": "Mainland China", "value": "146"}, "type": "Feature"}, {"geometry": {"coordinates": [109.7453, 19.1959], "type": "Point"}, "properties": {"city": "Hainan", "country": "Mainland China", "value": "168"}, "type": "Feature"}, {"geometry": {"coordinates": [114.5149, 38.0428], "type": "Point"}, "properties": {"city": "Hebei", "country": "Mainland China", "value": "311"}, "type": "Feature"}, {"geometry": {"coordinates": [127.7615, 47.862], "type": "Point"}, "properties": {"city": "Heilongjiang", "country": "Mainland China", "value": "480"}, "type": "Feature"}, {"geometry": {"coordinates": [113.614, 33.88202], "type": "Point"}, "properties": {"city": "Henan", "country": "Mainland China", "value": "1271"}, "type": "Feature"}, {"geometry": {"coordinates": [112.2707, 30.9756], "type": "Point"}, "properties": {"city": "Hubei", "country": "Mainland China", "value": "64287"}, "type": "Feature"}, {"geometry": {"coordinates": [111.7088, 27.6104], "type": "Point"}, "properties": {"city": "Hunan", "country": "Mainland China", "value": "1016"}, "type": "Feature"}, {"geometry": {"coordinates": [113.9448, 44.0935], "type": "Point"}, "properties": {"city": "Inner Mongolia", "country": "Mainland China", "value": "75"}, "type": "Feature"}, {"geometry": {"coordinates": [119.455, 32.9711], "type": "Point"}, "properties": {"city": "Jiangsu", "country": "Mainland China", "value": "631"}, "type": "Feature"}, {"geometry": {"coordinates": [115.7221, 27.614], "type": "Point"}, "properties": {"city": "Jiangxi", "country": "Mainland China", "value": "934"}, "type": "Feature"}, {"geometry": {"coordinates": [126.1923, 43.6661], "type": "Point"}, "properties": {"city": "Jilin", "country": "Mainland China", "value": "93"}, "type": "Feature"}, {"geometry": {"coordinates": [122.6085, 41.2956], "type": "Point"}, "properties": {"city": "Liaoning", "country": "Mainland China", "value": "121"}, "type": "Feature"}, {"geometry": {"coordinates": [106.1655, 37.2692], "type": "Point"}, "properties": {"city": "Ningxia", "country": "Mainland China", "value": "71"}, "type": "Feature"}, {"geometry": {"coordinates": [95.9956, 35.7452], "type": "Point"}, "properties": {"city": "Qinghai", "country": "Mainland China", "value": "18"}, "type": "Feature"}, {"geometry": {"coordinates": [108.8701, 35.1917], "type": "Point"}, "properties": {"city": "Shaanxi", "country": "Mainland China", "value": "245"}, "type": "Feature"}, {"geometry": {"coordinates": [118.1498, 36.3427], "type": "Point"}, "properties": {"city": "Shandong", "country": "Mainland China", "value": "755"}, "type": "Feature"}, {"geometry": {"coordinates": [121.4491, 31.202], "type": "Point"}, "properties": {"city": "Shanghai", "country": "Mainland China", "value": "335"}, "type": "Feature"}, {"geometry": {"coordinates": [112.2922, 37.5777], "type": "Point"}, "properties": {"city": "Shanxi", "country": "Mainland China", "value": "133"}, "type": "Feature"}, {"geometry": {"coordinates": [102.7103, 30.6171], "type": "Point"}, "properties": {"city": "Sichuan", "country": "Mainland China", "value": "527"}, "type": "Feature"}, {"geometry": {"coordinates": [117.323, 39.3054], "type": "Point"}, "properties": {"city": "Tianjin", "country": "Mainland China", "value": "135"}, "type": "Feature"}, {"geometry": {"coordinates": [88.0924, 31.6927], "type": "Point"}, "properties": {"city": "Tibet", "country": "Mainland China", "value": "1"}, "type": "Feature"}, {"geometry": {"coordinates": [85.2401, 41.1129], "type": "Point"}, "properties": {"city": "Xinjiang", "country": "Mainland China", "value": "76"}, "type": "Feature"}, {"geometry": {"coordinates": [101.487, 24.974], "type": "Point"}, "properties": {"city": "Yunnan", "country": "Mainland China", "value": "174"}, "type": "Feature"}, {"geometry": {"coordinates": [120.0934, 29.1832], "type": "Point"}, "properties": {"city": "Zhejiang", "country": "Mainland China", "value": "1205"}, "type": "Feature"}, {"geometry": {"coordinates": [101.0, 15.0], "type": "Point"}, "properties": {"city": "", "country": "Thailand", "value": "35"}, "type": "Feature"}, {"geometry": {"coordinates": [138.0, 36.0], "type": "Point"}, "properties": {"city": "", "country": "Japan", "value": "159"}, "type": "Feature"}, {"geometry": {"coordinates": [128.0, 36.0], "type": "Point"}, "properties": {"city": "", "country": "South Korea", "value": "833"}, "type": "Feature"}, {"geometry": {"coordinates": [121.0, 23.7], "type": "Point"}, "properties": {"city": "Taiwan", "country": "Taiwan", "value": "30"}, "type": "Feature"}, {"geometry": {"coordinates": [-122.3321, 47.6062], "type": "Point"}, "properties": {"city": "King County, WA", "country": "US", "value": "1"}, "type": "Feature"}, {"geometry": {"coordinates": [-87.6298, 41.8781], "type": "Point"}, "properties": {"city": "Cook County, IL", "country": "US", "value": "2"}, "type": "Feature"}, {"geometry": {"coordinates": [-111.94, 33.4255], "type": "Point"}, "properties": {"city": "Tempe, AZ", "country": "US", "value": "1"}, "type": "Feature"}, {"geometry": {"coordinates": [113.55, 22.1667], "type": "Point"}, "properties": {"city": "Macau", "country": "Macau", "value": "10"}, "type": "Feature"}, {"geometry": {"coordinates": [114.2, 22.3], "type": "Point"}, "properties": {"city": "Hong Kong", "country": "Hong Kong", "value": "79"}, "type": "Feature"}, {"geometry": {"coordinates": [103.8333, 1.2833], "type": "Point"}, "properties": {"city": "", "country": "Singapore", "value": "89"}, "type": "Feature"}, {"geometry": {"coordinates": [108.0, 16.0], "type": "Point"}, "properties": {"city": "", "country": "Vietnam", "value": "16"}, "type": "Feature"}, {"geometry": {"coordinates": [2.0, 47.0], "type": "Point"}, "properties": {"city": "", "country": "France", "value": "12"}, "type": "Feature"}, {"geometry": {"coordinates": [84.25, 28.1667], "type": "Point"}, "properties": {"city": "", "country": "Nepal", "value": "1"}, "type": "Feature"}, {"geometry": {"coordinates": [112.5, 2.5], "type": "Point"}, "properties": {"city": "", "country": "Malaysia", "value": "22"}, "type": "Feature"}, {"geometry": {"coordinates": [-79.3832, 43.6532], "type": "Point"}, "properties": {"city": "Toronto, ON", "country": "Canada", "value": "3"}, "type": "Feature"}, {"geometry": {"coordinates": [-123.1207, 49.2827], "type": "Point"}, "properties": {"city": "British Columbia", "country": "Canada", "value": "6"}, "type": "Feature"}, {"geometry": {"coordinates": [-117.8531, 33.7879], "type": "Point"}, "properties": {"city": "Orange, CA", "country": "US", "value": "1"}, "type": "Feature"}, {"geometry": {"coordinates": [-118.2437, 34.0522], "type": "Point"}, "properties": {"city": "Los Angeles, CA", "country": "US", "value": "1"}, "type": "Feature"}, {"geometry": {"coordinates": [151.2093, -33.8688], "type": "Point"}, "properties": {"city": "New South Wales", "country": "Australia", "value": "4"}, "type": "Feature"}, {"geometry": {"coordinates": [144.9631, -37.8136], "type": "Point"}, "properties": {"city": "Victoria", "country": "Australia", "value": "4"}, "type": "Feature"}, {"geometry": {"coordinates": [153.4, -28.0167], "type": "Point"}, "properties": {"city": "Queensland", "country": "Australia", "value": "5"}, "type": "Feature"}, {"geometry": {"coordinates": [104.9167, 11.55], "type": "Point"}, "properties": {"city": "", "country": "Cambodia", "value": "1"}, "type": "Feature"}, {"geometry": {"coordinates": [81.0, 7.0], "type": "Point"}, "properties": {"city": "", "country": "Sri Lanka", "value": "1"}, "type": "Feature"}, {"geometry": {"coordinates": [9.0, 51.0], "type": "Point"}, "properties": {"city": "", "country": "Germany", "value": "16"}, "type": "Feature"}, {"geometry": {"coordinates": [26.0, 64.0], "type": "Point"}, "properties": {"city": "", "country": "Finland", "value": "1"}, "type": "Feature"}, {"geometry": {"coordinates": [54.0, 24.0], "type": "Point"}, "properties": {"city": "", "country": "United Arab Emirates", "value": "13"}, "type": "Feature"}, {"geometry": {"coordinates": [122.0, 13.0], "type": "Point"}, "properties": {"city": "", "country": "Philippines", "value": "3"}, "type": "Feature"}, {"geometry": {"coordinates": [78.0, 21.0], "type": "Point"}, "properties": {"city": "", "country": "India", "value": "3"}, "type": "Feature"}, {"geometry": {"coordinates": [-81.2453, 42.9849], "type": "Point"}, "properties": {"city": "London, ON", "country": "Canada", "value": "1"}, "type": "Feature"}, {"geometry": {"coordinates": [12.0, 43.0], "type": "Point"}, "properties": {"city": "", "country": "Italy", "value": "229"}, "type": "Feature"}, {"geometry": {"coordinates": [-3.0, 55.0], "type": "Point"}, "properties": {"city": "", "country": "UK", "value": "13"}, "type": "Feature"}, {"geometry": {"coordinates": [90.0, 60.0], "type": "Point"}, "properties": {"city": "", "country": "Russia", "value": "2"}, "type": "Feature"}, {"geometry": {"coordinates": [16.0, 63.0], "type": "Point"}, "properties": {"city": "", "country": "Sweden", "value": "1"}, "type": "Feature"}, {"geometry": {"coordinates": [-121.9552, 37.3541], "type": "Point"}, "properties": {"city": "Santa Clara, CA", "country": "US", "value": "2"}, "type": "Feature"}, {"geometry": {"coordinates": [-4.0, 40.0], "type": "Point"}, "properties": {"city": "", "country": "Spain", "value": "2"}, "type": "Feature"}, {"geometry": {"coordinates": [138.6007, -34.9285], "type": "Point"}, "properties": {"city": "South Australia", "country": "Australia", "value": "2"}, "type": "Feature"}, {"geometry": {"coordinates": [-71.0589, 42.3601], "type": "Point"}, "properties": {"city": "Boston, MA", "country": "US", "value": "1"}, "type": "Feature"}, {"geometry": {"coordinates": [-120.9876, 36.5761], "type": "Point"}, "properties": {"city": "San Benito, CA", "country": "US", "value": "2"}, "type": "Feature"}, {"geometry": {"coordinates": [4.0, 50.8333], "type": "Point"}, "properties": {"city": "", "country": "Belgium", "value": "1"}, "type": "Feature"}, {"geometry": {"coordinates": [-89.4012, 43.0731], "type": "Point"}, "properties": {"city": "Madison, WI", "country": "US", "value": "1"}, "type": "Feature"}, {"geometry": {"coordinates": [139.638, 35.4437], "type": "Point"}, "properties": {"city": "Diamond Princess cruise ship", "country": "Others", "value": "691"}, "type": "Feature"}, {"geometry": {"coordinates": [-117.1611, 32.7157], "type": "Point"}, "properties": {"city": "San Diego County, CA", "country": "US", "value": "2"}, "type": "Feature"}, {"geometry": {"coordinates": [-98.4936, 29.4241], "type": "Point"}, "properties": {"city": "San Antonio, TX", "country": "US", "value": "1"}, "type": "Feature"}, {"geometry": {"coordinates": [30.0, 26.0], "type": "Point"}, "properties": {"city": "", "country": "Egypt", "value": "1"}, "type": "Feature"}, {"geometry": {"coordinates": [53.0, 32.0], "type": "Point"}, "properties": {"city": "", "country": "Iran", "value": "61"}, "type": "Feature"}, {"geometry": {"coordinates": [-95.9758, 41.2545], "type": "Point"}, "properties": {"city": "Omaha, NE (From Diamond Princess)", "country": "US", "value": "0"}, "type": "Feature"}, {"geometry": {"coordinates": [-121.9399, 38.2721], "type": "Point"}, "properties": {"city": "Travis, CA (From Diamond Princess)", "country": "US", "value": "0"}, "type": "Feature"}, {"geometry": {"coordinates": [139.638, 35.4437], "type": "Point"}, "properties": {"city": "From Diamond Princess", "country": "Australia", "value": "7"}, "type": "Feature"}, {"geometry": {"coordinates": [-98.6134, 29.3829], "type": "Point"}, "properties": {"city": "Lackland, TX (From Diamond Princess)", "country": "US", "value": "0"}, "type": "Feature"}, {"geometry": {"coordinates": [35.8623, 33.8547], "type": "Point"}, "properties": {"city": "", "country": "Lebanon", "value": "1"}, "type": "Feature"}, {"geometry": {"coordinates": [-123.8695, 40.745], "type": "Point"}, "properties": {"city": "Humboldt County, CA", "country": "US", "value": "1"}, "type": "Feature"}, {"geometry": {"coordinates": [-121.3542, 38.4747], "type": "Point"}, "properties": {"city": "Sacramento County, CA", "country": "US", "value": "1"}, "type": "Feature"}, {"geometry": {"coordinates": [44.0, 33.0], "type": "Point"}, "properties": {"city": "", "country": "Iraq", "value": "1"}, "type": "Feature"}, {"geometry": {"coordinates": [139.638, 35.4437], "type": "Point"}, "properties": {"city": "Unassigned Location (From Diamond Princess)", "country": "US", "value": "36"}, "type": "Feature"}, {"geometry": {"coordinates": [57.0, 21.0], "type": "Point"}, "properties": {"city": "", "country": "Oman", "value": "2"}, "type": "Feature"}, {"geometry": {"coordinates": [65.0, 33.0], "type": "Point"}, "properties": {"city": "", "country": "Afghanistan", "value": "1"}, "type": "Feature"}, {"geometry": {"coordinates": [50.55, 26.0275], "type": "Point"}, "properties": {"city": "", "country": "Bahrain", "value": "1"}, "type": "Feature"}, {"geometry": {"coordinates": [47.75, 29.5], "type": "Point"}, "properties": {"city": "", "country": "Kuwait", "value": "1"}, "type": "Feature"}, {"geometry": {"coordinates": [1.6596, 28.0339], "type": "Point"}, "properties": {"city": "", "country": "Algeria", "value": "0"}, "type": "Feature"}, {"geometry": {"coordinates": [15.2, 45.1], "type": "Point"}, "properties": {"city": "", "country": "Croatia", "value": "0"}, "type": "Feature"}, {"geometry": {"coordinates": [8.2275, 46.8182], "type": "Point"}, "properties": {"city": "", "country": "Switzerland", "value": "0"}, "type": "Feature"}, {"geometry": {"coordinates": [14.5501, 47.5162], "type": "Point"}, "properties": {"city": "", "country": "Austria", "value": "0"}, "type": "Feature"}, {"geometry": {"coordinates": [35.0, 31.0], "type": "Point"}, "properties": {"city": "", "country": "Israel", "value": "1"}, "type": "Feature"}, {"geometry": {"coordinates": [69.3451, 30.3753], "type": "Point"}, "properties": {"city": "", "country": "Pakistan", "value": "0"}, "type": "Feature"}, {"geometry": {"coordinates": [-51.9253, -14.235], "type": "Point"}, "properties": {"city": "", "country": "Brazil", "value": "0"}, "type": "Feature"}, {"geometry": {"coordinates": [43.3569, 42.3154], "type": "Point"}, "properties": {"city": "", "country": "Georgia", "value": "0"}, "type": "Feature"}, {"geometry": {"coordinates": [21.8243, 39.0742], "type": "Point"}, "properties": {"city": "", "country": "Greece", "value": "0"}, "type": "Feature"}, {"geometry": {"coordinates": [21.7453, 41.6086], "type": "Point"}, "properties": {"city": "", "country": "North Macedonia", "value": "0"}, "type": "Feature"}, {"geometry": {"coordinates": [8.4689, 60.472], "type": "Point"}, "properties": {"city": "", "country": "Norway", "value": "0"}, "type": "Feature"}, {"geometry": {"coordinates": [24.9668, 45.9432], "type": "Point"}, "properties": {"city": "", "country": "Romania", "value": "0"}, "type": "Feature"}, {"geometry": {"coordinates": [9.5018, 56.2639], "type": "Point"}, "properties": {"city": "", "country": "Denmark", "value": "0"}, "type": "Feature"}, {"geometry": {"coordinates": [25.0136, 58.5953], "type": "Point"}, "properties": {"city": "", "country": "Estonia", "value": "0"}, "type": "Feature"}, {"geometry": {"coordinates": [5.2913, 52.1326], "type": "Point"}, "properties": {"city": "", "country": "Netherlands", "value": "0"}, "type": "Feature"}, {"geometry": {"coordinates": [12.4578, 43.9424], "type": "Point"}, "properties": {"city": "", "country": "San Marino", "value": "0"}, "type": "Feature"}, {"geometry": {"coordinates": [27.9534, 53.7098], "type": "Point"}, "properties": {"city": "", "country": "Belarus", "value": "0"}, "type": "Feature"}, {"geometry": {"coordinates": [-73.5673, 45.5017], "type": "Point"}, "properties": {"city": " Montreal, QC", "country": "Canada", "value": "0"}, "type": "Feature"}, {"geometry": {"coordinates": [-19.0208, 64.9631], "type": "Point"}, "properties": {"city": "", "country": "Iceland", "value": "0"}, "type": "Feature"}, {"geometry": {"coordinates": [23.8813, 55.1694], "type": "Point"}, "properties": {"city": "", "country": "Lithuania", "value": "0"}, "type": "Feature"}, {"geometry": {"coordinates": [-102.5528, 23.6345], "type": "Point"}, "properties": {"city": "", "country": "Mexico", "value": "0"}, "type": "Feature"}, {"geometry": {"coordinates": [174.886, -40.9006], "type": "Point"}, "properties": {"city": "", "country": "New Zealand", "value": "0"}, "type": "Feature"}, {"geometry": {"coordinates": [8.6753, 9.082], "type": "Point"}, "properties": {"city": "", "country": "Nigeria", "value": "0"}, "type": "Feature"}, {"geometry": {"coordinates": [115.8605, -31.9505], "type": "Point"}, "properties": {"city": "Western Australia", "country": "Australia", "value": "0"}, "type": "Feature"}, {"geometry": {"coordinates": [-7.6921, 53.1424], "type": "Point"}, "properties": {"city": "", "country": "Ireland", "value": "0"}, "type": "Feature"}, {"geometry": {"coordinates": [6.1296, 49.8153], "type": "Point"}, "properties": {"city": "", "country": "Luxembourg", "value": "0"}, "type": "Feature"}, {"geometry": {"coordinates": [7.4167, 43.7333], "type": "Point"}, "properties": {"city": "", "country": "Monaco", "value": "0"}, "type": "Feature"}, {"geometry": {"coordinates": [51.1839, 25.3548], "type": "Point"}, "properties": {"city": "", "country": "Qatar", "value": "0"}, "type": "Feature"}, {"geometry": {"coordinates": [-122.675, 45.5051], "type": "Point"}, "properties": {"city": "Portland, OR", "country": "US", "value": "0"}, "type": "Feature"}, {"geometry": {"coordinates": [-121.8339, 48.033], "type": "Point"}, "properties": {"city": "Snohomish County, WA", "country": "US", "value": "0"}, "type": "Feature"}, {"geometry": {"coordinates": [-78.1834, -1.8312], "type": "Point"}, "properties": {"city": "", "country": "Ecuador", "value": "0"}, "type": "Feature"}, {"geometry": {"coordinates": [47.5769, 40.1431], "type": "Point"}, "properties": {"city": "", "country": "Azerbaijan", "value": "0"}, "type": "Feature"}, {"geometry": {"coordinates": [15.473, 49.8175], "type": "Point"}, "properties": {"city": "", "country": "Czech Republic", "value": "0"}, "type": "Feature"}, {"geometry": {"coordinates": [45.0382, 40.0691], "type": "Point"}, "properties": {"city": "", "country": "Armenia", "value": "0"}, "type": "Feature"}, {"geometry": {"coordinates": [-70.1627, 18.7357], "type": "Point"}, "properties": {"city": "", "country": "Dominican Republic", "value": "0"}, "type": "Feature"}, {"geometry": {"coordinates": [-71.4128, 41.824], "type": "Point"}, "properties": {"city": "Providence, RI", "country": "US", "value": "0"}, "type": "Feature"}, {"geometry": {"coordinates": [-87.6976, 41.7377], "type": "Point"}, "properties": {"city": "Cook County, IL", "country": "US", "value": "0"}, "type": "Feature"}, {"geometry": {"coordinates": [113.9213, -0.7893], "type": "Point"}, "properties": {"city": "", "country": "Indonesia", "value": "0"}, "type": "Feature"}, {"geometry": {"coordinates": [-8.2245, 39.3999], "type": "Point"}, "properties": {"city": "", "country": "Portugal", "value": "0"}, "type": "Feature"}, {"geometry": {"coordinates": [1.5218, 42.5063], "type": "Point"}, "properties": {"city": "", "country": "Andorra", "value": "0"}, "type": "Feature"}, {"geometry": {"coordinates": [145.9707, -41.4545], "type": "Point"}, "properties": {"city": "Tasmania", "country": "Australia", "value": "0"}, "type": "Feature"}, {"geometry": {"coordinates": [24.6032, 56.8796], "type": "Point"}, "properties": {"city": "", "country": "Latvia", "value": "0"}, "type": "Feature"}, {"geometry": {"coordinates": [-7.0926, 31.7917], "type": "Point"}, "properties": {"city": "", "country": "Morocco", "value": "0"}, "type": "Feature"}, {"geometry": {"coordinates": [45.0, 24.0], "type": "Point"}, "properties": {"city": "", "country": "Saudi Arabia", "value": "0"}, "type": "Feature"}, {"geometry": {"coordinates": [-14.4524, 14.4974], "type": "Point"}, "properties": {"city": "", "country": "Senegal", "value": "0"}, "type": "Feature"}, {"geometry": {"coordinates": [-71.826, 43.9088], "type": "Point"}, "properties": {"city": "Grafton County, NH", "country": "US", "value": "0"}, "type": "Feature"}, {"geometry": {"coordinates": [-82.3018, 27.9904], "type": "Point"}, "properties": {"city": "Hillsborough, FL", "country": "US", "value": "0"}, "type": "Feature"}, {"geometry": {"coordinates": [-74.006, 40.7128], "type": "Point"}, "properties": {"city": "New York City, NY", "country": "US", "value": "0"}, "type": "Feature"}, {"geometry": {"coordinates": [-120.8039, 39.0916], "type": "Point"}, "properties": {"city": "Placer County, CA", "country": "US", "value": "0"}, "type": "Feature"}, {"geometry": {"coordinates": [-122.3255, 37.563], "type": "Point"}, "properties": {"city": "San Mateo, CA", "country": "US", "value": "0"}, "type": "Feature"}, {"geometry": {"coordinates": [-82.5307, 27.3364], "type": "Point"}, "properties": {"city": "Sarasota, FL", "country": "US", "value": "0"}, "type": "Feature"}, {"geometry": {"coordinates": [-122.9888, 38.578], "type": "Point"}, "properties": {"city": "Sonoma County, CA", "country": "US", "value": "0"}, "type": "Feature"}, {"geometry": {"coordinates": [-118.7606, 45.775], "type": "Point"}, "properties": {"city": "Umatilla, OR", "country": "US", "value": "0"}, "type": "Feature"}], "type": "FeatureCollection"}, 'death': {"features": [{"geometry": {"coordinates": [117.2264, 31.8257], "type": "Point"}, "properties": {"city": "Anhui", "country": "Mainland China", "value": "989"}, "type": "Feature"}, {"geometry": {"coordinates": [116.4142, 40.1824], "type": "Point"}, "properties": {"city": "Beijing", "country": "Mainland China", "value": "399"}, "type": "Feature"}, {"geometry": {"coordinates": [107.874, 30.0572], "type": "Point"}, "properties": {"city": "Chongqing", "country": "Mainland China", "value": "576"}, "type": "Feature"}, {"geometry": {"coordinates": [117.9874, 26.0789], "type": "Point"}, "properties": {"city": "Fujian", "country": "Mainland China", "value": "293"}, "type": "Feature"}, {"geometry": {"coordinates": [103.8343, 36.0611], "type": "Point"}, "properties": {"city": "Gansu", "country": "Mainland China", "value": "91"}, "type": "Feature"}, {"geometry": {"coordinates": [113.4244, 23.3417], "type": "Point"}, "properties": {"city": "Guangdong", "country": "Mainland China", "value": "1345"}, "type": "Feature"}, {"geometry": {"coordinates": [108.7881, 23.8298], "type": "Point"}, "properties": {"city": "Guangxi", "country": "Mainland China", "value": "251"}, "type": "Feature"}, {"geometry": {"coordinates": [106.8748, 26.8154], "type": "Point"}, "properties": {"city": "Guizhou", "country": "Mainland China", "value": "146"}, "type": "Feature"}, {"geometry": {"coordinates": [109.7453, 19.1959], "type": "Point"}, "properties": {"city": "Hainan", "country": "Mainland China", "value": "168"}, "type": "Feature"}, {"geometry": {"coordinates": [114.5149, 38.0428], "type": "Point"}, "properties": {"city": "Hebei", "country": "Mainland China", "value": "311"}, "type": "Feature"}, {"geometry": {"coordinates": [127.7615, 47.862], "type": "Point"}, "properties": {"city": "Heilongjiang", "country": "Mainland China", "value": "480"}, "type": "Feature"}, {"geometry": {"coordinates": [113.614, 33.88202], "type": "Point"}, "properties": {"city": "Henan", "country": "Mainland China", "value": "1271"}, "type": "Feature"}, {"geometry": {"coordinates": [112.2707, 30.9756], "type": "Point"}, "properties": {"city": "Hubei", "country": "Mainland China", "value": "64287"}, "type": "Feature"}, {"geometry": {"coordinates": [111.7088, 27.6104], "type": "Point"}, "properties": {"city": "Hunan", "country": "Mainland China", "value": "1016"}, "type": "Feature"}, {"geometry": {"coordinates": [113.9448, 44.0935], "type": "Point"}, "properties": {"city": "Inner Mongolia", "country": "Mainland China", "value": "75"}, "type": "Feature"}, {"geometry": {"coordinates": [119.455, 32.9711], "type": "Point"}, "properties": {"city": "Jiangsu", "country": "Mainland China", "value": "631"}, "type": "Feature"}, {"geometry": {"coordinates": [115.7221, 27.614], "type": "Point"}, "properties": {"city": "Jiangxi", "country": "Mainland China", "value": "934"}, "type": "Feature"}, {"geometry": {"coordinates": [126.1923, 43.6661], "type": "Point"}, "properties": {"city": "Jilin", "country": "Mainland China", "value": "93"}, "type": "Feature"}, {"geometry": {"coordinates": [122.6085, 41.2956], "type": "Point"}, "properties": {"city": "Liaoning", "country": "Mainland China", "value": "121"}, "type": "Feature"}, {"geometry": {"coordinates": [106.1655, 37.2692], "type": "Point"}, "properties": {"city": "Ningxia", "country": "Mainland China", "value": "71"}, "type": "Feature"}, {"geometry": {"coordinates": [95.9956, 35.7452], "type": "Point"}, "properties": {"city": "Qinghai", "country": "Mainland China", "value": "18"}, "type": "Feature"}, {"geometry": {"coordinates": [108.8701, 35.1917], "type": "Point"}, "properties": {"city": "Shaanxi", "country": "Mainland China", "value": "245"}, "type": "Feature"}, {"geometry": {"coordinates": [118.1498, 36.3427], "type": "Point"}, "properties": {"city": "Shandong", "country": "Mainland China", "value": "755"}, "type": "Feature"}, {"geometry": {"coordinates": [121.4491, 31.202], "type": "Point"}, "properties": {"city": "Shanghai", "country": "Mainland China", "value": "335"}, "type": "Feature"}, {"geometry": {"coordinates": [112.2922, 37.5777], "type": "Point"}, "properties": {"city": "Shanxi", "country": "Mainland China", "value": "133"}, "type": "Feature"}, {"geometry": {"coordinates": [102.7103, 30.6171], "type": "Point"}, "properties": {"city": "Sichuan", "country": "Mainland China", "value": "527"}, "type": "Feature"}, {"geometry": {"coordinates": [117.323, 39.3054], "type": "Point"}, "properties": {"city": "Tianjin", "country": "Mainland China", "value": "135"}, "type": "Feature"}, {"geometry": {"coordinates": [88.0924, 31.6927], "type": "Point"}, "properties": {"city": "Tibet", "country": "Mainland China", "value": "1"}, "type": "Feature"}, {"geometry": {"coordinates": [85.2401, 41.1129], "type": "Point"}, "properties": {"city": "Xinjiang", "country": "Mainland China", "value": "76"}, "type": "Feature"}, {"geometry": {"coordinates": [101.487, 24.974], "type": "Point"}, "properties": {"city": "Yunnan", "country": "Mainland China", "value": "174"}, "type": "Feature"}, {"geometry": {"coordinates": [120.0934, 29.1832], "type": "Point"}, "properties": {"city": "Zhejiang", "country": "Mainland China", "value": "1205"}, "type": "Feature"}, {"geometry": {"coordinates": [101.0, 15.0], "type": "Point"}, "properties": {"city": "", "country": "Thailand", "value": "35"}, "type": "Feature"}, {"geometry": {"coordinates": [138.0, 36.0], "type": "Point"}, "properties": {"city": "", "country": "Japan", "value": "159"}, "type": "Feature"}, {"geometry": {"coordinates": [128.0, 36.0], "type": "Point"}, "properties": {"city": "", "country": "South Korea", "value": "833"}, "type": "Feature"}, {"geometry": {"coordinates": [121.0, 23.7], "type": "Point"}, "properties": {"city": "Taiwan", "country": "Taiwan", "value": "30"}, "type": "Feature"}, {"geometry": {"coordinates": [-122.3321, 47.6062], "type": "Point"}, "properties": {"city": "King County, WA", "country": "US", "value": "1"}, "type": "Feature"}, {"geometry": {"coordinates": [-87.6298, 41.8781], "type": "Point"}, "properties": {"city": "Cook County, IL", "country": "US", "value": "2"}, "type": "Feature"}, {"geometry": {"coordinates": [-111.94, 33.4255], "type": "Point"}, "properties": {"city": "Tempe, AZ", "country": "US", "value": "1"}, "type": "Feature"}, {"geometry": {"coordinates": [113.55, 22.1667], "type": "Point"}, "properties": {"city": "Macau", "country": "Macau", "value": "10"}, "type": "Feature"}, {"geometry": {"coordinates": [114.2, 22.3], "type": "Point"}, "properties": {"city": "Hong Kong", "country": "Hong Kong", "value": "79"}, "type": "Feature"}, {"geometry": {"coordinates": [103.8333, 1.2833], "type": "Point"}, "properties": {"city": "", "country": "Singapore", "value": "89"}, "type": "Feature"}, {"geometry": {"coordinates": [108.0, 16.0], "type": "Point"}, "properties": {"city": "", "country": "Vietnam", "value": "16"}, "type": "Feature"}, {"geometry": {"coordinates": [2.0, 47.0], "type": "Point"}, "properties": {"city": "", "country": "France", "value": "12"}, "type": "Feature"}, {"geometry": {"coordinates": [84.25, 28.1667], "type": "Point"}, "properties": {"city": "", "country": "Nepal", "value": "1"}, "type": "Feature"}, {"geometry": {"coordinates": [112.5, 2.5], "type": "Point"}, "properties": {"city": "", "country": "Malaysia", "value": "22"}, "type": "Feature"}, {"geometry": {"coordinates": [-79.3832, 43.6532], "type": "Point"}, "properties": {"city": "Toronto, ON", "country": "Canada", "value": "3"}, "type": "Feature"}, {"geometry": {"coordinates": [-123.1207, 49.2827], "type": "Point"}, "properties": {"city": "British Columbia", "country": "Canada", "value": "6"}, "type": "Feature"}, {"geometry": {"coordinates": [-117.8531, 33.7879], "type": "Point"}, "properties": {"city": "Orange, CA", "country": "US", "value": "1"}, "type": "Feature"}, {"geometry": {"coordinates": [-118.2437, 34.0522], "type": "Point"}, "properties": {"city": "Los Angeles, CA", "country": "US", "value": "1"}, "type": "Feature"}, {"geometry": {"coordinates": [151.2093, -33.8688], "type": "Point"}, "properties": {"city": "New South Wales", "country": "Australia", "value": "4"}, "type": "Feature"}, {"geometry": {"coordinates": [144.9631, -37.8136], "type": "Point"}, "properties": {"city": "Victoria", "country": "Australia", "value": "4"}, "type": "Feature"}, {"geometry": {"coordinates": [153.4, -28.0167], "type": "Point"}, "properties": {"city": "Queensland", "country": "Australia", "value": "5"}, "type": "Feature"}, {"geometry": {"coordinates": [104.9167, 11.55], "type": "Point"}, "properties": {"city": "", "country": "Cambodia", "value": "1"}, "type": "Feature"}, {"geometry": {"coordinates": [81.0, 7.0], "type": "Point"}, "properties": {"city": "", "country": "Sri Lanka", "value": "1"}, "type": "Feature"}, {"geometry": {"coordinates": [9.0, 51.0], "type": "Point"}, "properties": {"city": "", "country": "Germany", "value": "16"}, "type": "Feature"}, {"geometry": {"coordinates": [26.0, 64.0], "type": "Point"}, "properties": {"city": "", "country": "Finland", "value": "1"}, "type": "Feature"}, {"geometry": {"coordinates": [54.0, 24.0], "type": "Point"}, "properties": {"city": "", "country": "United Arab Emirates", "value": "13"}, "type": "Feature"}, {"geometry": {"coordinates": [122.0, 13.0], "type": "Point"}, "properties": {"city": "", "country": "Philippines", "value": "3"}, "type": "Feature"}, {"geometry": {"coordinates": [78.0, 21.0], "type": "Point"}, "properties": {"city": "", "country": "India", "value": "3"}, "type": "Feature"}, {"geometry": {"coordinates": [-81.2453, 42.9849], "type": "Point"}, "properties": {"city": "London, ON", "country": "Canada", "value": "1"}, "type": "Feature"}, {"geometry": {"coordinates": [12.0, 43.0], "type": "Point"}, "properties": {"city": "", "country": "Italy", "value": "229"}, "type": "Feature"}, {"geometry": {"coordinates": [-3.0, 55.0], "type": "Point"}, "properties": {"city": "", "country": "UK", "value": "13"}, "type": "Feature"}, {"geometry": {"coordinates": [90.0, 60.0], "type": "Point"}, "properties": {"city": "", "country": "Russia", "value": "2"}, "type": "Feature"}, {"geometry": {"coordinates": [16.0, 63.0], "type": "Point"}, "properties": {"city": "", "country": "Sweden", "value": "1"}, "type": "Feature"}, {"geometry": {"coordinates": [-121.9552, 37.3541], "type": "Point"}, "properties": {"city": "Santa Clara, CA", "country": "US", "value": "2"}, "type": "Feature"}, {"geometry": {"coordinates": [-4.0, 40.0], "type": "Point"}, "properties": {"city": "", "country": "Spain", "value": "2"}, "type": "Feature"}, {"geometry": {"coordinates": [138.6007, -34.9285], "type": "Point"}, "properties": {"city": "South Australia", "country": "Australia", "value": "2"}, "type": "Feature"}, {"geometry": {"coordinates": [-71.0589, 42.3601], "type": "Point"}, "properties": {"city": "Boston, MA", "country": "US", "value": "1"}, "type": "Feature"}, {"geometry": {"coordinates": [-120.9876, 36.5761], "type": "Point"}, "properties": {"city": "San Benito, CA", "country": "US", "value": "2"}, "type": "Feature"}, {"geometry": {"coordinates": [4.0, 50.8333], "type": "Point"}, "properties": {"city": "", "country": "Belgium", "value": "1"}, "type": "Feature"}, {"geometry": {"coordinates": [-89.4012, 43.0731], "type": "Point"}, "properties": {"city": "Madison, WI", "country": "US", "value": "1"}, "type": "Feature"}, {"geometry": {"coordinates": [139.638, 35.4437], "type": "Point"}, "properties": {"city": "Diamond Princess cruise ship", "country": "Others", "value": "691"}, "type": "Feature"}, {"geometry": {"coordinates": [-117.1611, 32.7157], "type": "Point"}, "properties": {"city": "San Diego County, CA", "country": "US", "value": "2"}, "type": "Feature"}, {"geometry": {"coordinates": [-98.4936, 29.4241], "type": "Point"}, "properties": {"city": "San Antonio, TX", "country": "US", "value": "1"}, "type": "Feature"}, {"geometry": {"coordinates": [30.0, 26.0], "type": "Point"}, "properties": {"city": "", "country": "Egypt", "value": "1"}, "type": "Feature"}, {"geometry": {"coordinates": [53.0, 32.0], "type": "Point"}, "properties": {"city": "", "country": "Iran", "value": "61"}, "type": "Feature"}, {"geometry": {"coordinates": [-95.9758, 41.2545], "type": "Point"}, "properties": {"city": "Omaha, NE (From Diamond Princess)", "country": "US", "value": "0"}, "type": "Feature"}, {"geometry": {"coordinates": [-121.9399, 38.2721], "type": "Point"}, "properties": {"city": "Travis, CA (From Diamond Princess)", "country": "US", "value": "0"}, "type": "Feature"}, {"geometry": {"coordinates": [139.638, 35.4437], "type": "Point"}, "properties": {"city": "From Diamond Princess", "country": "Australia", "value": "7"}, "type": "Feature"}, {"geometry": {"coordinates": [-98.6134, 29.3829], "type": "Point"}, "properties": {"city": "Lackland, TX (From Diamond Princess)", "country": "US", "value": "0"}, "type": "Feature"}, {"geometry": {"coordinates": [35.8623, 33.8547], "type": "Point"}, "properties": {"city": "", "country": "Lebanon", "value": "1"}, "type": "Feature"}, {"geometry": {"coordinates": [-123.8695, 40.745], "type": "Point"}, "properties": {"city": "Humboldt County, CA", "country": "US", "value": "1"}, "type": "Feature"}, {"geometry": {"coordinates": [-121.3542, 38.4747], "type": "Point"}, "properties": {"city": "Sacramento County, CA", "country": "US", "value": "1"}, "type": "Feature"}, {"geometry": {"coordinates": [44.0, 33.0], "type": "Point"}, "properties": {"city": "", "country": "Iraq", "value": "1"}, "type": "Feature"}, {"geometry": {"coordinates": [139.638, 35.4437], "type": "Point"}, "properties": {"city": "Unassigned Location (From Diamond Princess)", "country": "US", "value": "36"}, "type": "Feature"}, {"geometry": {"coordinates": [57.0, 21.0], "type": "Point"}, "properties": {"city": "", "country": "Oman", "value": "2"}, "type": "Feature"}, {"geometry": {"coordinates": [65.0, 33.0], "type": "Point"}, "properties": {"city": "", "country": "Afghanistan", "value": "1"}, "type": "Feature"}, {"geometry": {"coordinates": [50.55, 26.0275], "type": "Point"}, "properties": {"city": "", "country": "Bahrain", "value": "1"}, "type": "Feature"}, {"geometry": {"coordinates": [47.75, 29.5], "type": "Point"}, "properties": {"city": "", "country": "Kuwait", "value": "1"}, "type": "Feature"}, {"geometry": {"coordinates": [1.6596, 28.0339], "type": "Point"}, "properties": {"city": "", "country": "Algeria", "value": "0"}, "type": "Feature"}, {"geometry": {"coordinates": [15.2, 45.1], "type": "Point"}, "properties": {"city": "", "country": "Croatia", "value": "0"}, "type": "Feature"}, {"geometry": {"coordinates": [8.2275, 46.8182], "type": "Point"}, "properties": {"city": "", "country": "Switzerland", "value": "0"}, "type": "Feature"}, {"geometry": {"coordinates": [14.5501, 47.5162], "type": "Point"}, "properties": {"city": "", "country": "Austria", "value": "0"}, "type": "Feature"}, {"geometry": {"coordinates": [35.0, 31.0], "type": "Point"}, "properties": {"city": "", "country": "Israel", "value": "1"}, "type": "Feature"}, {"geometry": {"coordinates": [69.3451, 30.3753], "type": "Point"}, "properties": {"city": "", "country": "Pakistan", "value": "0"}, "type": "Feature"}, {"geometry": {"coordinates": [-51.9253, -14.235], "type": "Point"}, "properties": {"city": "", "country": "Brazil", "value": "0"}, "type": "Feature"}, {"geometry": {"coordinates": [43.3569, 42.3154], "type": "Point"}, "properties": {"city": "", "country": "Georgia", "value": "0"}, "type": "Feature"}, {"geometry": {"coordinates": [21.8243, 39.0742], "type": "Point"}, "properties": {"city": "", "country": "Greece", "value": "0"}, "type": "Feature"}, {"geometry": {"coordinates": [21.7453, 41.6086], "type": "Point"}, "properties": {"city": "", "country": "North Macedonia", "value": "0"}, "type": "Feature"}, {"geometry": {"coordinates": [8.4689, 60.472], "type": "Point"}, "properties": {"city": "", "country": "Norway", "value": "0"}, "type": "Feature"}, {"geometry": {"coordinates": [24.9668, 45.9432], "type": "Point"}, "properties": {"city": "", "country": "Romania", "value": "0"}, "type": "Feature"}, {"geometry": {"coordinates": [9.5018, 56.2639], "type": "Point"}, "properties": {"city": "", "country": "Denmark", "value": "0"}, "type": "Feature"}, {"geometry": {"coordinates": [25.0136, 58.5953], "type": "Point"}, "properties": {"city": "", "country": "Estonia", "value": "0"}, "type": "Feature"}, {"geometry": {"coordinates": [5.2913, 52.1326], "type": "Point"}, "properties": {"city": "", "country": "Netherlands", "value": "0"}, "type": "Feature"}, {"geometry": {"coordinates": [12.4578, 43.9424], "type": "Point"}, "properties": {"city": "", "country": "San Marino", "value": "0"}, "type": "Feature"}, {"geometry": {"coordinates": [27.9534, 53.7098], "type": "Point"}, "properties": {"city": "", "country": "Belarus", "value": "0"}, "type": "Feature"}, {"geometry": {"coordinates": [-73.5673, 45.5017], "type": "Point"}, "properties": {"city": " Montreal, QC", "country": "Canada", "value": "0"}, "type": "Feature"}, {"geometry": {"coordinates": [-19.0208, 64.9631], "type": "Point"}, "properties": {"city": "", "country": "Iceland", "value": "0"}, "type": "Feature"}, {"geometry": {"coordinates": [23.8813, 55.1694], "type": "Point"}, "properties": {"city": "", "country": "Lithuania", "value": "0"}, "type": "Feature"}, {"geometry": {"coordinates": [-102.5528, 23.6345], "type": "Point"}, "properties": {"city": "", "country": "Mexico", "value": "0"}, "type": "Feature"}, {"geometry": {"coordinates": [174.886, -40.9006], "type": "Point"}, "properties": {"city": "", "country": "New Zealand", "value": "0"}, "type": "Feature"}, {"geometry": {"coordinates": [8.6753, 9.082], "type": "Point"}, "properties": {"city": "", "country": "Nigeria", "value": "0"}, "type": "Feature"}, {"geometry": {"coordinates": [115.8605, -31.9505], "type": "Point"}, "properties": {"city": "Western Australia", "country": "Australia", "value": "0"}, "type": "Feature"}, {"geometry": {"coordinates": [-7.6921, 53.1424], "type": "Point"}, "properties": {"city": "", "country": "Ireland", "value": "0"}, "type": "Feature"}, {"geometry": {"coordinates": [6.1296, 49.8153], "type": "Point"}, "properties": {"city": "", "country": "Luxembourg", "value": "0"}, "type": "Feature"}, {"geometry": {"coordinates": [7.4167, 43.7333], "type": "Point"}, "properties": {"city": "", "country": "Monaco", "value": "0"}, "type": "Feature"}, {"geometry": {"coordinates": [51.1839, 25.3548], "type": "Point"}, "properties": {"city": "", "country": "Qatar", "value": "0"}, "type": "Feature"}, {"geometry": {"coordinates": [-122.675, 45.5051], "type": "Point"}, "properties": {"city": "Portland, OR", "country": "US", "value": "0"}, "type": "Feature"}, {"geometry": {"coordinates": [-121.8339, 48.033], "type": "Point"}, "properties": {"city": "Snohomish County, WA", "country": "US", "value": "0"}, "type": "Feature"}, {"geometry": {"coordinates": [-78.1834, -1.8312], "type": "Point"}, "properties": {"city": "", "country": "Ecuador", "value": "0"}, "type": "Feature"}, {"geometry": {"coordinates": [47.5769, 40.1431], "type": "Point"}, "properties": {"city": "", "country": "Azerbaijan", "value": "0"}, "type": "Feature"}, {"geometry": {"coordinates": [15.473, 49.8175], "type": "Point"}, "properties": {"city": "", "country": "Czech Republic", "value": "0"}, "type": "Feature"}, {"geometry": {"coordinates": [45.0382, 40.0691], "type": "Point"}, "properties": {"city": "", "country": "Armenia", "value": "0"}, "type": "Feature"}, {"geometry": {"coordinates": [-70.1627, 18.7357], "type": "Point"}, "properties": {"city": "", "country": "Dominican Republic", "value": "0"}, "type": "Feature"}, {"geometry": {"coordinates": [-71.4128, 41.824], "type": "Point"}, "properties": {"city": "Providence, RI", "country": "US", "value": "0"}, "type": "Feature"}, {"geometry": {"coordinates": [-87.6976, 41.7377], "type": "Point"}, "properties": {"city": "Cook County, IL", "country": "US", "value": "0"}, "type": "Feature"}, {"geometry": {"coordinates": [113.9213, -0.7893], "type": "Point"}, "properties": {"city": "", "country": "Indonesia", "value": "0"}, "type": "Feature"}, {"geometry": {"coordinates": [-8.2245, 39.3999], "type": "Point"}, "properties": {"city": "", "country": "Portugal", "value": "0"}, "type": "Feature"}, {"geometry": {"coordinates": [1.5218, 42.5063], "type": "Point"}, "properties": {"city": "", "country": "Andorra", "value": "0"}, "type": "Feature"}, {"geometry": {"coordinates": [145.9707, -41.4545], "type": "Point"}, "properties": {"city": "Tasmania", "country": "Australia", "value": "0"}, "type": "Feature"}, {"geometry": {"coordinates": [24.6032, 56.8796], "type": "Point"}, "properties": {"city": "", "country": "Latvia", "value": "0"}, "type": "Feature"}, {"geometry": {"coordinates": [-7.0926, 31.7917], "type": "Point"}, "properties": {"city": "", "country": "Morocco", "value": "0"}, "type": "Feature"}, {"geometry": {"coordinates": [45.0, 24.0], "type": "Point"}, "properties": {"city": "", "country": "Saudi Arabia", "value": "0"}, "type": "Feature"}, {"geometry": {"coordinates": [-14.4524, 14.4974], "type": "Point"}, "properties": {"city": "", "country": "Senegal", "value": "0"}, "type": "Feature"}, {"geometry": {"coordinates": [-71.826, 43.9088], "type": "Point"}, "properties": {"city": "Grafton County, NH", "country": "US", "value": "0"}, "type": "Feature"}, {"geometry": {"coordinates": [-82.3018, 27.9904], "type": "Point"}, "properties": {"city": "Hillsborough, FL", "country": "US", "value": "0"}, "type": "Feature"}, {"geometry": {"coordinates": [-74.006, 40.7128], "type": "Point"}, "properties": {"city": "New York City, NY", "country": "US", "value": "0"}, "type": "Feature"}, {"geometry": {"coordinates": [-120.8039, 39.0916], "type": "Point"}, "properties": {"city": "Placer County, CA", "country": "US", "value": "0"}, "type": "Feature"}, {"geometry": {"coordinates": [-122.3255, 37.563], "type": "Point"}, "properties": {"city": "San Mateo, CA", "country": "US", "value": "0"}, "type": "Feature"}, {"geometry": {"coordinates": [-82.5307, 27.3364], "type": "Point"}, "properties": {"city": "Sarasota, FL", "country": "US", "value": "0"}, "type": "Feature"}, {"geometry": {"coordinates": [-122.9888, 38.578], "type": "Point"}, "properties": {"city": "Sonoma County, CA", "country": "US", "value": "0"}, "type": "Feature"}, {"geometry": {"coordinates": [-118.7606, 45.775], "type": "Point"}, "properties": {"city": "Umatilla, OR", "country": "US", "value": "0"}, "type": "Feature"}], "type": "FeatureCollection"}, 'recover': {"features": [{"geometry": {"coordinates": [117.2264, 31.8257], "type": "Point"}, "properties": {"city": "Anhui", "country": "Mainland China", "value": "989"}, "type": "Feature"}, {"geometry": {"coordinates": [116.4142, 40.1824], "type": "Point"}, "properties": {"city": "Beijing", "country": "Mainland China", "value": "399"}, "type": "Feature"}, {"geometry": {"coordinates": [107.874, 30.0572], "type": "Point"}, "properties": {"city": "Chongqing", "country": "Mainland China", "value": "576"}, "type": "Feature"}, {"geometry": {"coordinates": [117.9874, 26.0789], "type": "Point"}, "properties": {"city": "Fujian", "country": "Mainland China", "value": "293"}, "type": "Feature"}, {"geometry": {"coordinates": [103.8343, 36.0611], "type": "Point"}, "properties": {"city": "Gansu", "country": "Mainland China", "value": "91"}, "type": "Feature"}, {"geometry": {"coordinates": [113.4244, 23.3417], "type": "Point"}, "properties": {"city": "Guangdong", "country": "Mainland China", "value": "1345"}, "type": "Feature"}, {"geometry": {"coordinates": [108.7881, 23.8298], "type": "Point"}, "properties": {"city": "Guangxi", "country": "Mainland China", "value": "251"}, "type": "Feature"}, {"geometry": {"coordinates": [106.8748, 26.8154], "type": "Point"}, "properties": {"city": "Guizhou", "country": "Mainland China", "value": "146"}, "type": "Feature"}, {"geometry": {"coordinates": [109.7453, 19.1959], "type": "Point"}, "properties": {"city": "Hainan", "country": "Mainland China", "value": "168"}, "type": "Feature"}, {"geometry": {"coordinates": [114.5149, 38.0428], "type": "Point"}, "properties": {"city": "Hebei", "country": "Mainland China", "value": "311"}, "type": "Feature"}, {"geometry": {"coordinates": [127.7615, 47.862], "type": "Point"}, "properties": {"city": "Heilongjiang", "country": "Mainland China", "value": "480"}, "type": "Feature"}, {"geometry": {"coordinates": [113.614, 33.88202], "type": "Point"}, "properties": {"city": "Henan", "country": "Mainland China", "value": "1271"}, "type": "Feature"}, {"geometry": {"coordinates": [112.2707, 30.9756], "type": "Point"}, "properties": {"city": "Hubei", "country": "Mainland China", "value": "64287"}, "type": "Feature"}, {"geometry": {"coordinates": [111.7088, 27.6104], "type": "Point"}, "properties": {"city": "Hunan", "country": "Mainland China", "value": "1016"}, "type": "Feature"}, {"geometry": {"coordinates": [113.9448, 44.0935], "type": "Point"}, "properties": {"city": "Inner Mongolia", "country": "Mainland China", "value": "75"}, "type": "Feature"}, {"geometry": {"coordinates": [119.455, 32.9711], "type": "Point"}, "properties": {"city": "Jiangsu", "country": "Mainland China", "value": "631"}, "type": "Feature"}, {"geometry": {"coordinates": [115.7221, 27.614], "type": "Point"}, "properties": {"city": "Jiangxi", "country": "Mainland China", "value": "934"}, "type": "Feature"}, {"geometry": {"coordinates": [126.1923, 43.6661], "type": "Point"}, "properties": {"city": "Jilin", "country": "Mainland China", "value": "93"}, "type": "Feature"}, {"geometry": {"coordinates": [122.6085, 41.2956], "type": "Point"}, "properties": {"city": "Liaoning", "country": "Mainland China", "value": "121"}, "type": "Feature"}, {"geometry": {"coordinates": [106.1655, 37.2692], "type": "Point"}, "properties": {"city": "Ningxia", "country": "Mainland China", "value": "71"}, "type": "Feature"}, {"geometry": {"coordinates": [95.9956, 35.7452], "type": "Point"}, "properties": {"city": "Qinghai", "country": "Mainland China", "value": "18"}, "type": "Feature"}, {"geometry": {"coordinates": [108.8701, 35.1917], "type": "Point"}, "properties": {"city": "Shaanxi", "country": "Mainland China", "value": "245"}, "type": "Feature"}, {"geometry": {"coordinates": [118.1498, 36.3427], "type": "Point"}, "properties": {"city": "Shandong", "country": "Mainland China", "value": "755"}, "type": "Feature"}, {"geometry": {"coordinates": [121.4491, 31.202], "type": "Point"}, "properties": {"city": "Shanghai", "country": "Mainland China", "value": "335"}, "type": "Feature"}, {"geometry": {"coordinates": [112.2922, 37.5777], "type": "Point"}, "properties": {"city": "Shanxi", "country": "Mainland China", "value": "133"}, "type": "Feature"}, {"geometry": {"coordinates": [102.7103, 30.6171], "type": "Point"}, "properties": {"city": "Sichuan", "country": "Mainland China", "value": "527"}, "type": "Feature"}, {"geometry": {"coordinates": [117.323, 39.3054], "type": "Point"}, "properties": {"city": "Tianjin", "country": "Mainland China", "value": "135"}, "type": "Feature"}, {"geometry": {"coordinates": [88.0924, 31.6927], "type": "Point"}, "properties": {"city": "Tibet", "country": "Mainland China", "value": "1"}, "type": "Feature"}, {"geometry": {"coordinates": [85.2401, 41.1129], "type": "Point"}, "properties": {"city": "Xinjiang", "country": "Mainland China", "value": "76"}, "type": "Feature"}, {"geometry": {"coordinates": [101.487, 24.974], "type": "Point"}, "properties": {"city": "Yunnan", "country": "Mainland China", "value": "174"}, "type": "Feature"}, {"geometry": {"coordinates": [120.0934, 29.1832], "type": "Point"}, "properties": {"city": "Zhejiang", "country": "Mainland China", "value": "1205"}, "type": "Feature"}, {"geometry": {"coordinates": [101.0, 15.0], "type": "Point"}, "properties": {"city": "", "country": "Thailand", "value": "35"}, "type": "Feature"}, {"geometry": {"coordinates": [138.0, 36.0], "type": "Point"}, "properties": {"city": "", "country": "Japan", "value": "159"}, "type": "Feature"}, {"geometry": {"coordinates": [128.0, 36.0], "type": "Point"}, "properties": {"city": "", "country": "South Korea", "value": "833"}, "type": "Feature"}, {"geometry": {"coordinates": [121.0, 23.7], "type": "Point"}, "properties": {"city": "Taiwan", "country": "Taiwan", "value": "30"}, "type": "Feature"}, {"geometry": {"coordinates": [-122.3321, 47.6062], "type": "Point"}, "properties": {"city": "King County, WA", "country": "US", "value": "1"}, "type": "Feature"}, {"geometry": {"coordinates": [-87.6298, 41.8781], "type": "Point"}, "properties": {"city": "Cook County, IL", "country": "US", "value": "2"}, "type": "Feature"}, {"geometry": {"coordinates": [-111.94, 33.4255], "type": "Point"}, "properties": {"city": "Tempe, AZ", "country": "US", "value": "1"}, "type": "Feature"}, {"geometry": {"coordinates": [113.55, 22.1667], "type": "Point"}, "properties": {"city": "Macau", "country": "Macau", "value": "10"}, "type": "Feature"}, {"geometry": {"coordinates": [114.2, 22.3], "type": "Point"}, "properties": {"city": "Hong Kong", "country": "Hong Kong", "value": "79"}, "type": "Feature"}, {"geometry": {"coordinates": [103.8333, 1.2833], "type": "Point"}, "properties": {"city": "", "country": "Singapore", "value": "89"}, "type": "Feature"}, {"geometry": {"coordinates": [108.0, 16.0], "type": "Point"}, "properties": {"city": "", "country": "Vietnam", "value": "16"}, "type": "Feature"}, {"geometry": {"coordinates": [2.0, 47.0], "type": "Point"}, "properties": {"city": "", "country": "France", "value": "12"}, "type": "Feature"}, {"geometry": {"coordinates": [84.25, 28.1667], "type": "Point"}, "properties": {"city": "", "country": "Nepal", "value": "1"}, "type": "Feature"}, {"geometry": {"coordinates": [112.5, 2.5], "type": "Point"}, "properties": {"city": "", "country": "Malaysia", "value": "22"}, "type": "Feature"}, {"geometry": {"coordinates": [-79.3832, 43.6532], "type": "Point"}, "properties": {"city": "Toronto, ON", "country": "Canada", "value": "3"}, "type": "Feature"}, {"geometry": {"coordinates": [-123.1207, 49.2827], "type": "Point"}, "properties": {"city": "British Columbia", "country": "Canada", "value": "6"}, "type": "Feature"}, {"geometry": {"coordinates": [-117.8531, 33.7879], "type": "Point"}, "properties": {"city": "Orange, CA", "country": "US", "value": "1"}, "type": "Feature"}, {"geometry": {"coordinates": [-118.2437, 34.0522], "type": "Point"}, "properties": {"city": "Los Angeles, CA", "country": "US", "value": "1"}, "type": "Feature"}, {"geometry": {"coordinates": [151.2093, -33.8688], "type": "Point"}, "properties": {"city": "New South Wales", "country": "Australia", "value": "4"}, "type": "Feature"}, {"geometry": {"coordinates": [144.9631, -37.8136], "type": "Point"}, "properties": {"city": "Victoria", "country": "Australia", "value": "4"}, "type": "Feature"}, {"geometry": {"coordinates": [153.4, -28.0167], "type": "Point"}, "properties": {"city": "Queensland", "country": "Australia", "value": "5"}, "type": "Feature"}, {"geometry": {"coordinates": [104.9167, 11.55], "type": "Point"}, "properties": {"city": "", "country": "Cambodia", "value": "1"}, "type": "Feature"}, {"geometry": {"coordinates": [81.0, 7.0], "type": "Point"}, "properties": {"city": "", "country": "Sri Lanka", "value": "1"}, "type": "Feature"}, {"geometry": {"coordinates": [9.0, 51.0], "type": "Point"}, "properties": {"city": "", "country": "Germany", "value": "16"}, "type": "Feature"}, {"geometry": {"coordinates": [26.0, 64.0], "type": "Point"}, "properties": {"city": "", "country": "Finland", "value": "1"}, "type": "Feature"}, {"geometry": {"coordinates": [54.0, 24.0], "type": "Point"}, "properties": {"city": "", "country": "United Arab Emirates", "value": "13"}, "type": "Feature"}, {"geometry": {"coordinates": [122.0, 13.0], "type": "Point"}, "properties": {"city": "", "country": "Philippines", "value": "3"}, "type": "Feature"}, {"geometry": {"coordinates": [78.0, 21.0], "type": "Point"}, "properties": {"city": "", "country": "India", "value": "3"}, "type": "Feature"}, {"geometry": {"coordinates": [-81.2453, 42.9849], "type": "Point"}, "properties": {"city": "London, ON", "country": "Canada", "value": "1"}, "type": "Feature"}, {"geometry": {"coordinates": [12.0, 43.0], "type": "Point"}, "properties": {"city": "", "country": "Italy", "value": "229"}, "type": "Feature"}, {"geometry": {"coordinates": [-3.0, 55.0], "type": "Point"}, "properties": {"city": "", "country": "UK", "value": "13"}, "type": "Feature"}, {"geometry": {"coordinates": [90.0, 60.0], "type": "Point"}, "properties": {"city": "", "country": "Russia", "value": "2"}, "type": "Feature"}, {"geometry": {"coordinates": [16.0, 63.0], "type": "Point"}, "properties": {"city": "", "country": "Sweden", "value": "1"}, "type": "Feature"}, {"geometry": {"coordinates": [-121.9552, 37.3541], "type": "Point"}, "properties": {"city": "Santa Clara, CA", "country": "US", "value": "2"}, "type": "Feature"}, {"geometry": {"coordinates": [-4.0, 40.0], "type": "Point"}, "properties": {"city": "", "country": "Spain", "value": "2"}, "type": "Feature"}, {"geometry": {"coordinates": [138.6007, -34.9285], "type": "Point"}, "properties": {"city": "South Australia", "country": "Australia", "value": "2"}, "type": "Feature"}, {"geometry": {"coordinates": [-71.0589, 42.3601], "type": "Point"}, "properties": {"city": "Boston, MA", "country": "US", "value": "1"}, "type": "Feature"}, {"geometry": {"coordinates": [-120.9876, 36.5761], "type": "Point"}, "properties": {"city": "San Benito, CA", "country": "US", "value": "2"}, "type": "Feature"}, {"geometry": {"coordinates": [4.0, 50.8333], "type": "Point"}, "properties": {"city": "", "country": "Belgium", "value": "1"}, "type": "Feature"}, {"geometry": {"coordinates": [-89.4012, 43.0731], "type": "Point"}, "properties": {"city": "Madison, WI", "country": "US", "value": "1"}, "type": "Feature"}, {"geometry": {"coordinates": [139.638, 35.4437], "type": "Point"}, "properties": {"city": "Diamond Princess cruise ship", "country": "Others", "value": "691"}, "type": "Feature"}, {"geometry": {"coordinates": [-117.1611, 32.7157], "type": "Point"}, "properties": {"city": "San Diego County, CA", "country": "US", "value": "2"}, "type": "Feature"}, {"geometry": {"coordinates": [-98.4936, 29.4241], "type": "Point"}, "properties": {"city": "San Antonio, TX", "country": "US", "value": "1"}, "type": "Feature"}, {"geometry": {"coordinates": [30.0, 26.0], "type": "Point"}, "properties": {"city": "", "country": "Egypt", "value": "1"}, "type": "Feature"}, {"geometry": {"coordinates": [53.0, 32.0], "type": "Point"}, "properties": {"city": "", "country": "Iran", "value": "61"}, "type": "Feature"}, {"geometry": {"coordinates": [-95.9758, 41.2545], "type": "Point"}, "properties": {"city": "Omaha, NE (From Diamond Princess)", "country": "US", "value": "0"}, "type": "Feature"}, {"geometry": {"coordinates": [-121.9399, 38.2721], "type": "Point"}, "properties": {"city": "Travis, CA (From Diamond Princess)", "country": "US", "value": "0"}, "type": "Feature"}, {"geometry": {"coordinates": [139.638, 35.4437], "type": "Point"}, "properties": {"city": "From Diamond Princess", "country": "Australia", "value": "7"}, "type": "Feature"}, {"geometry": {"coordinates": [-98.6134, 29.3829], "type": "Point"}, "properties": {"city": "Lackland, TX (From Diamond Princess)", "country": "US", "value": "0"}, "type": "Feature"}, {"geometry": {"coordinates": [35.8623, 33.8547], "type": "Point"}, "properties": {"city": "", "country": "Lebanon", "value": "1"}, "type": "Feature"}, {"geometry": {"coordinates": [-123.8695, 40.745], "type": "Point"}, "properties": {"city": "Humboldt County, CA", "country": "US", "value": "1"}, "type": "Feature"}, {"geometry": {"coordinates": [-121.3542, 38.4747], "type": "Point"}, "properties": {"city": "Sacramento County, CA", "country": "US", "value": "1"}, "type": "Feature"}, {"geometry": {"coordinates": [44.0, 33.0], "type": "Point"}, "properties": {"city": "", "country": "Iraq", "value": "1"}, "type": "Feature"}, {"geometry": {"coordinates": [139.638, 35.4437], "type": "Point"}, "properties": {"city": "Unassigned Location (From Diamond Princess)", "country": "US", "value": "36"}, "type": "Feature"}, {"geometry": {"coordinates": [57.0, 21.0], "type": "Point"}, "properties": {"city": "", "country": "Oman", "value": "2"}, "type": "Feature"}, {"geometry": {"coordinates": [65.0, 33.0], "type": "Point"}, "properties": {"city": "", "country": "Afghanistan", "value": "1"}, "type": "Feature"}, {"geometry": {"coordinates": [50.55, 26.0275], "type": "Point"}, "properties": {"city": "", "country": "Bahrain", "value": "1"}, "type": "Feature"}, {"geometry": {"coordinates": [47.75, 29.5], "type": "Point"}, "properties": {"city": "", "country": "Kuwait", "value": "1"}, "type": "Feature"}, {"geometry": {"coordinates": [1.6596, 28.0339], "type": "Point"}, "properties": {"city": "", "country": "Algeria", "value": "0"}, "type": "Feature"}, {"geometry": {"coordinates": [15.2, 45.1], "type": "Point"}, "properties": {"city": "", "country": "Croatia", "value": "0"}, "type": "Feature"}, {"geometry": {"coordinates": [8.2275, 46.8182], "type": "Point"}, "properties": {"city": "", "country": "Switzerland", "value": "0"}, "type": "Feature"}, {"geometry": {"coordinates": [14.5501, 47.5162], "type": "Point"}, "properties": {"city": "", "country": "Austria", "value": "0"}, "type": "Feature"}, {"geometry": {"coordinates": [35.0, 31.0], "type": "Point"}, "properties": {"city": "", "country": "Israel", "value": "1"}, "type": "Feature"}, {"geometry": {"coordinates": [69.3451, 30.3753], "type": "Point"}, "properties": {"city": "", "country": "Pakistan", "value": "0"}, "type": "Feature"}, {"geometry": {"coordinates": [-51.9253, -14.235], "type": "Point"}, "properties": {"city": "", "country": "Brazil", "value": "0"}, "type": "Feature"}, {"geometry": {"coordinates": [43.3569, 42.3154], "type": "Point"}, "properties": {"city": "", "country": "Georgia", "value": "0"}, "type": "Feature"}, {"geometry": {"coordinates": [21.8243, 39.0742], "type": "Point"}, "properties": {"city": "", "country": "Greece", "value": "0"}, "type": "Feature"}, {"geometry": {"coordinates": [21.7453, 41.6086], "type": "Point"}, "properties": {"city": "", "country": "North Macedonia", "value": "0"}, "type": "Feature"}, {"geometry": {"coordinates": [8.4689, 60.472], "type": "Point"}, "properties": {"city": "", "country": "Norway", "value": "0"}, "type": "Feature"}, {"geometry": {"coordinates": [24.9668, 45.9432], "type": "Point"}, "properties": {"city": "", "country": "Romania", "value": "0"}, "type": "Feature"}, {"geometry": {"coordinates": [9.5018, 56.2639], "type": "Point"}, "properties": {"city": "", "country": "Denmark", "value": "0"}, "type": "Feature"}, {"geometry": {"coordinates": [25.0136, 58.5953], "type": "Point"}, "properties": {"city": "", "country": "Estonia", "value": "0"}, "type": "Feature"}, {"geometry": {"coordinates": [5.2913, 52.1326], "type": "Point"}, "properties": {"city": "", "country": "Netherlands", "value": "0"}, "type": "Feature"}, {"geometry": {"coordinates": [12.4578, 43.9424], "type": "Point"}, "properties": {"city": "", "country": "San Marino", "value": "0"}, "type": "Feature"}, {"geometry": {"coordinates": [27.9534, 53.7098], "type": "Point"}, "properties": {"city": "", "country": "Belarus", "value": "0"}, "type": "Feature"}, {"geometry": {"coordinates": [-73.5673, 45.5017], "type": "Point"}, "properties": {"city": " Montreal, QC", "country": "Canada", "value": "0"}, "type": "Feature"}, {"geometry": {"coordinates": [-19.0208, 64.9631], "type": "Point"}, "properties": {"city": "", "country": "Iceland", "value": "0"}, "type": "Feature"}, {"geometry": {"coordinates": [23.8813, 55.1694], "type": "Point"}, "properties": {"city": "", "country": "Lithuania", "value": "0"}, "type": "Feature"}, {"geometry": {"coordinates": [-102.5528, 23.6345], "type": "Point"}, "properties": {"city": "", "country": "Mexico", "value": "0"}, "type": "Feature"}, {"geometry": {"coordinates": [174.886, -40.9006], "type": "Point"}, "properties": {"city": "", "country": "New Zealand", "value": "0"}, "type": "Feature"}, {"geometry": {"coordinates": [8.6753, 9.082], "type": "Point"}, "properties": {"city": "", "country": "Nigeria", "value": "0"}, "type": "Feature"}, {"geometry": {"coordinates": [115.8605, -31.9505], "type": "Point"}, "properties": {"city": "Western Australia", "country": "Australia", "value": "0"}, "type": "Feature"}, {"geometry": {"coordinates": [-7.6921, 53.1424], "type": "Point"}, "properties": {"city": "", "country": "Ireland", "value": "0"}, "type": "Feature"}, {"geometry": {"coordinates": [6.1296, 49.8153], "type": "Point"}, "properties": {"city": "", "country": "Luxembourg", "value": "0"}, "type": "Feature"}, {"geometry": {"coordinates": [7.4167, 43.7333], "type": "Point"}, "properties": {"city": "", "country": "Monaco", "value": "0"}, "type": "Feature"}, {"geometry": {"coordinates": [51.1839, 25.3548], "type": "Point"}, "properties": {"city": "", "country": "Qatar", "value": "0"}, "type": "Feature"}, {"geometry": {"coordinates": [-122.675, 45.5051], "type": "Point"}, "properties": {"city": "Portland, OR", "country": "US", "value": "0"}, "type": "Feature"}, {"geometry": {"coordinates": [-121.8339, 48.033], "type": "Point"}, "properties": {"city": "Snohomish County, WA", "country": "US", "value": "0"}, "type": "Feature"}, {"geometry": {"coordinates": [-78.1834, -1.8312], "type": "Point"}, "properties": {"city": "", "country": "Ecuador", "value": "0"}, "type": "Feature"}, {"geometry": {"coordinates": [47.5769, 40.1431], "type": "Point"}, "properties": {"city": "", "country": "Azerbaijan", "value": "0"}, "type": "Feature"}, {"geometry": {"coordinates": [15.473, 49.8175], "type": "Point"}, "properties": {"city": "", "country": "Czech Republic", "value": "0"}, "type": "Feature"}, {"geometry": {"coordinates": [45.0382, 40.0691], "type": "Point"}, "properties": {"city": "", "country": "Armenia", "value": "0"}, "type": "Feature"}, {"geometry": {"coordinates": [-70.1627, 18.7357], "type": "Point"}, "properties": {"city": "", "country": "Dominican Republic", "value": "0"}, "type": "Feature"}, {"geometry": {"coordinates": [-71.4128, 41.824], "type": "Point"}, "properties": {"city": "Providence, RI", "country": "US", "value": "0"}, "type": "Feature"}, {"geometry": {"coordinates": [-87.6976, 41.7377], "type": "Point"}, "properties": {"city": "Cook County, IL", "country": "US", "value": "0"}, "type": "Feature"}, {"geometry": {"coordinates": [113.9213, -0.7893], "type": "Point"}, "properties": {"city": "", "country": "Indonesia", "value": "0"}, "type": "Feature"}, {"geometry": {"coordinates": [-8.2245, 39.3999], "type": "Point"}, "properties": {"city": "", "country": "Portugal", "value": "0"}, "type": "Feature"}, {"geometry": {"coordinates": [1.5218, 42.5063], "type": "Point"}, "properties": {"city": "", "country": "Andorra", "value": "0"}, "type": "Feature"}, {"geometry": {"coordinates": [145.9707, -41.4545], "type": "Point"}, "properties": {"city": "Tasmania", "country": "Australia", "value": "0"}, "type": "Feature"}, {"geometry": {"coordinates": [24.6032, 56.8796], "type": "Point"}, "properties": {"city": "", "country": "Latvia", "value": "0"}, "type": "Feature"}, {"geometry": {"coordinates": [-7.0926, 31.7917], "type": "Point"}, "properties": {"city": "", "country": "Morocco", "value": "0"}, "type": "Feature"}, {"geometry": {"coordinates": [45.0, 24.0], "type": "Point"}, "properties": {"city": "", "country": "Saudi Arabia", "value": "0"}, "type": "Feature"}, {"geometry": {"coordinates": [-14.4524, 14.4974], "type": "Point"}, "properties": {"city": "", "country": "Senegal", "value": "0"}, "type": "Feature"}, {"geometry": {"coordinates": [-71.826, 43.9088], "type": "Point"}, "properties": {"city": "Grafton County, NH", "country": "US", "value": "0"}, "type": "Feature"}, {"geometry": {"coordinates": [-82.3018, 27.9904], "type": "Point"}, "properties": {"city": "Hillsborough, FL", "country": "US", "value": "0"}, "type": "Feature"}, {"geometry": {"coordinates": [-74.006, 40.7128], "type": "Point"}, "properties": {"city": "New York City, NY", "country": "US", "value": "0"}, "type": "Feature"}, {"geometry": {"coordinates": [-120.8039, 39.0916], "type": "Point"}, "properties": {"city": "Placer County, CA", "country": "US", "value": "0"}, "type": "Feature"}, {"geometry": {"coordinates": [-122.3255, 37.563], "type": "Point"}, "properties": {"city": "San Mateo, CA", "country": "US", "value": "0"}, "type": "Feature"}, {"geometry": {"coordinates": [-82.5307, 27.3364], "type": "Point"}, "properties": {"city": "Sarasota, FL", "country": "US", "value": "0"}, "type": "Feature"}, {"geometry": {"coordinates": [-122.9888, 38.578], "type": "Point"}, "properties": {"city": "Sonoma County, CA", "country": "US", "value": "0"}, "type": "Feature"}, {"geometry": {"coordinates": [-118.7606, 45.775], "type": "Point"}, "properties": {"city": "Umatilla, OR", "country": "US", "value": "0"}, "type": "Feature"}], "type": "FeatureCollection"}}